{
"type": "FeatureCollection",
"name": "herzeliya",
"crs": { "type": "name", "properties": { "name": "urn:ogc:def:crs:OGC:1.3:CRS84" } },
"features": [
{ "type": "Feature", "properties": { "OBJECTID": 1, "מקלט": 101.0, "כתובת": "הבשן 14", "תיאור": "תיאטרון", "number_mik": 101.0, "open_1": 1, "סוג": "מרחב ציבורי", "address": "הבשן 14, הרצליה", "notes": null, "status": "מרחב ציבורי" }, "geometry": { "type": "Point", "coordinates": [ 34.85427829077932, 32.176627235046979 ] } },
{ "type": "Feature", "properties": { "OBJECTID": 2, "מקלט": 182.0, "כתובת": "הגאון מוילנה 13", "תיאור": "בית פוסטר", "number_mik": 182.0, "open_1": 1, "סוג": "מרחב ציבורי", "address": "הגאון מוילנה 13, הרצליה", "notes": null, "status": "מרחב ציבורי" }, "geometry": { "type": "Point", "coordinates": [ 34.843801284630409, 32.152736691093857 ] } },
{ "type": "Feature", "properties": { "OBJECTID": 3, "מקלט": 168.0, "כתובת": "בר כוכבא 86", "תיאור": "מתנ\"ס", "number_mik": 168.0, "open_1": 1, "סוג": "מרחב ציבורי", "address": "בר כוכבא 86, הרצליה", "notes": null, "status": "מרחב ציבורי" }, "geometry": { "type": "Point", "coordinates": [ 34.836473812605107, 32.15869440251393 ] } },
{ "type": "Feature", "properties": { "OBJECTID": 4, "מקלט": 104.0, "כתובת": "בר אילן 20 (צפון)", "תיאור": "קלוב תעופה", "number_mik": 104.0, "open_1": 1, "סוג": "מרחב ציבורי", "address": "בר אילן 20 (צפון), הרצליה", "notes": null, "status": "מרחב ציבורי" }, "geometry": { "type": "Point", "coordinates": [ 34.838595524192066, 32.16361525911951 ] } },
{ "type": "Feature", "properties": { "OBJECTID": 5, "מקלט": 105.0, "כתובת": "בן סרוק  / רשב\"ם", "תיאור": "מתנ\"ס יבור", "number_mik": 105.0, "open_1": 1, "סוג": "מרחב ציבורי", "address": "בן סרוק  / רשב\"ם, הרצליה", "notes": null, "status": "מרחב ציבורי" }, "geometry": { "type": "Point", "coordinates": [ 34.831712623987123, 32.164244448388558 ] } },
{ "type": "Feature", "properties": { "OBJECTID": 6, "מקלט": 106.0, "כתובת": "תור הזהב 12", "תיאור": "מתנ\"ס יבור", "number_mik": 106.0, "open_1": 1, "סוג": "מרחב ציבורי", "address": "תור הזהב 12, הרצליה", "notes": null, "status": "מרחב ציבורי" }, "geometry": { "type": "Point", "coordinates": [ 34.8333466639831, 32.163897558202024 ] } },
{ "type": "Feature", "properties": { "OBJECTID": 7, "מקלט": 107.0, "כתובת": "הרב קוק 30", "תיאור": "תיכון על\"ה", "number_mik": 107.0, "open_1": null, "סוג": "מוסד חינוכי", "address": "הרב קוק 30, הרצליה", "notes": null, "status": "מוסד חינוכי" }, "geometry": { "type": "Point", "coordinates": [ 34.839279333221064, 32.162282600074015 ] } },
{ "type": "Feature", "properties": { "OBJECTID": 8, "מקלט": 108.0, "כתובת": "רבי עקיבא 12", "תיאור": "ביה\"ס לב טוב", "number_mik": 108.0, "open_1": null, "סוג": "מוסד חינוכי", "address": "רבי עקיבא 12, הרצליה", "notes": null, "status": "מוסד חינוכי" }, "geometry": { "type": "Point", "coordinates": [ 34.844167178114475, 32.15403629925423 ] } },
{ "type": "Feature", "properties": { "OBJECTID": 9, "מקלט": 109.0, "כתובת": "אבן עזרא 13", "תיאור": "חט\"ב בן גוריון", "number_mik": 109.0, "open_1": null, "סוג": "מוסד חינוכי", "address": "אבן עזרא 13, הרצליה", "notes": null, "status": "מוסד חינוכי" }, "geometry": { "type": "Point", "coordinates": [ 34.830213625139457, 32.165268051608386 ] } },
{ "type": "Feature", "properties": { "OBJECTID": 10, "מקלט": 110.0, "כתובת": "שמאי 10", "תיאור": "ביה\"ס אופק", "number_mik": 110.0, "open_1": null, "סוג": "מוסד חינוכי", "address": "שמאי 10, הרצליה", "notes": null, "status": "מוסד חינוכי" }, "geometry": { "type": "Point", "coordinates": [ 34.836668981909995, 32.162888248950047 ] } },
{ "type": "Feature", "properties": { "OBJECTID": 11, "מקלט": 111.0, "כתובת": "יגאל אלון 42", "תיאור": "ביה\"ס ברנר", "number_mik": 111.0, "open_1": null, "סוג": "מוסד חינוכי", "address": "יגאל אלון 42, הרצליה", "notes": null, "status": "מוסד חינוכי" }, "geometry": { "type": "Point", "coordinates": [ 34.850057529524832, 32.168616696528282 ] } },
{ "type": "Feature", "properties": { "OBJECTID": 12, "מקלט": 112.0, "כתובת": " פנקס 2 (בי\"ס רמב\"ם)", "תיאור": "ביה\"ס רמב\"ם", "number_mik": 112.0, "open_1": null, "סוג": "מוסד חינוכי", "address": " פנקס 2 (בי\"ס רמב\"ם), הרצליה", "notes": null, "status": "מוסד חינוכי" }, "geometry": { "type": "Point", "coordinates": [ 34.853639243043574, 32.160781189154903 ] } },
{ "type": "Feature", "properties": { "OBJECTID": 13, "מקלט": 113.0, "כתובת": "הנדיב 61", "תיאור": "ביה\"ס הנדיב", "number_mik": 113.0, "open_1": null, "סוג": "מוסד חינוכי", "address": "הנדיב 61, הרצליה", "notes": null, "status": "מוסד חינוכי" }, "geometry": { "type": "Point", "coordinates": [ 34.83369228711571, 32.170174956200995 ] } },
{ "type": "Feature", "properties": { "OBJECTID": 14, "מקלט": 114.0, "כתובת": "הר סיני 4", "תיאור": "ביה\"ס הרצל", "number_mik": 114.0, "open_1": null, "סוג": "מוסד חינוכי", "address": "הר סיני 4, הרצליה", "notes": null, "status": "מוסד חינוכי" }, "geometry": { "type": "Point", "coordinates": [ 34.856441988823477, 32.173657335507478 ] } },
{ "type": "Feature", "properties": { "OBJECTID": 15, "מקלט": 115.0, "כתובת": "זיסו 10", "תיאור": "חט\"ב  בוסתן", "number_mik": 115.0, "open_1": null, "סוג": "מוסד חינוכי", "address": "זיסו 10, הרצליה", "notes": null, "status": "מוסד חינוכי" }, "geometry": { "type": "Point", "coordinates": [ 34.854390125979712, 32.177881017208932 ] } },
{ "type": "Feature", "properties": { "OBJECTID": 16, "מקלט": 116.0, "כתובת": "ויצמן 14", "תיאור": "ביה\"ס ויצמן", "number_mik": 116.0, "open_1": null, "סוג": "מוסד חינוכי", "address": "ויצמן 14, הרצליה", "notes": null, "status": "מוסד חינוכי" }, "geometry": { "type": "Point", "coordinates": [ 34.835942906369986, 32.164175681463021 ] } },
{ "type": "Feature", "properties": { "OBJECTID": 17, "מקלט": 117.0, "כתובת": "בר אילן 12", "תיאור": "ביה\"ס בר אילן", "number_mik": 117.0, "open_1": null, "סוג": "מוסד חינוכי", "address": "בר אילן 12, הרצליה", "notes": null, "status": "מוסד חינוכי" }, "geometry": { "type": "Point", "coordinates": [ 34.839878613562625, 32.166198053956727 ] } },
{ "type": "Feature", "properties": { "OBJECTID": 18, "מקלט": 118.0, "כתובת": " כצנלסון 21 – סמטת ניסנוב", "תיאור": "מועדון אנוש", "number_mik": 118.0, "open_1": 1, "סוג": "מרחב ציבורי", "address": " כצנלסון 21 – סמטת ניסנוב, הרצליה", "notes": null, "status": "מרחב ציבורי" }, "geometry": { "type": "Point", "coordinates": [ 34.857264955293573, 32.169132662547369 ] } },
{ "type": "Feature", "properties": { "OBJECTID": 19, "מקלט": 119.0, "כתובת": "סעדיה גאון 2", "תיאור": "מועדון אקי\"ם", "number_mik": 119.0, "open_1": 1, "סוג": "מרחב ציבורי", "address": "סעדיה גאון 2, הרצליה", "notes": null, "status": "מרחב ציבורי" }, "geometry": { "type": "Point", "coordinates": [ 34.836420248936783, 32.156196313669199 ] } },
{ "type": "Feature", "properties": { "OBJECTID": 20, "מקלט": 120.0, "כתובת": "אלחרזי 4 (גן ציבורי)", "תיאור": "מועדון", "number_mik": 120.0, "open_1": 1, "סוג": "מרחב ציבורי", "address": "אלחרזי 4 (גן ציבורי), הרצליה", "notes": null, "status": "מרחב ציבורי" }, "geometry": { "type": "Point", "coordinates": [ 34.83923097275737, 32.185025319300287 ] } },
{ "type": "Feature", "properties": { "OBJECTID": 21, "מקלט": 121.0, "כתובת": " רביבים 47 (זולאי פפו)", "תיאור": "גמילות חסדים", "number_mik": 121.0, "open_1": null, "סוג": "מרחב ציבורי", "address": " רביבים 47 (זולאי פפו), הרצליה", "notes": null, "status": "מרחב ציבורי" }, "geometry": { "type": "Point", "coordinates": [ 34.853153169230154, 32.174180293812626 ] } },
{ "type": "Feature", "properties": { "OBJECTID": 22, "מקלט": 122.0, "כתובת": "יצחק שדה", "תיאור": "ביה\"ס גורדון", "number_mik": 122.0, "open_1": null, "סוג": "מוסד חינוכי", "address": "יצחק שדה, הרצליה", "notes": null, "status": "מוסד חינוכי" }, "geometry": { "type": "Point", "coordinates": [ 34.856647992716994, 32.164090015 ] } },
{ "type": "Feature", "properties": { "OBJECTID": 23, "מקלט": 123.0, "כתובת": "הר עצמון 18", "תיאור": "בטיפול", "number_mik": 123.0, "open_1": 1, "סוג": "מרחב ציבורי", "address": "הר עצמון 18, הרצליה", "notes": null, "status": "מרחב ציבורי" }, "geometry": { "type": "Point", "coordinates": [ 34.854932678041223, 32.174636113295257 ] } },
{ "type": "Feature", "properties": { "OBJECTID": 24, "מקלט": 124.0, "כתובת": "הנדיב 75", "תיאור": "ביה\"ס ארז", "number_mik": 124.0, "open_1": null, "סוג": "מוסד חינוכי", "address": "הנדיב 75, הרצליה", "notes": null, "status": "מוסד חינוכי" }, "geometry": { "type": "Point", "coordinates": [ 34.830807454606571, 32.170427983678252 ] } },
{ "type": "Feature", "properties": { "OBJECTID": 25, "מקלט": 125.0, "כתובת": "   רחל 25", "תיאור": "בית פוסטר", "number_mik": 125.0, "open_1": 1, "סוג": "מרחב ציבורי", "address": "   רחל 25, הרצליה", "notes": null, "status": "מרחב ציבורי" }, "geometry": { "type": "Point", "coordinates": [ 34.858812616287352, 32.172004561174603 ] } },
{ "type": "Feature", "properties": { "OBJECTID": 26, "מקלט": 126.0, "כתובת": "יצחק שדה", "תיאור": "ביה\"ס גורדון", "number_mik": 126.0, "open_1": null, "סוג": "מוסד חינוכי", "address": "יצחק שדה, הרצליה", "notes": null, "status": "מוסד חינוכי" }, "geometry": { "type": "Point", "coordinates": [ 34.856488251813794, 32.164278949690463 ] } },
{ "type": "Feature", "properties": { "OBJECTID": 27, "מקלט": 127.0, "כתובת": "רבי עקיבא 12", "תיאור": "ביה\"ס לב טוב", "number_mik": 127.0, "open_1": null, "סוג": "מוסד חינוכי", "address": "רבי עקיבא 12, הרצליה", "notes": null, "status": "מוסד חינוכי" }, "geometry": { "type": "Point", "coordinates": [ 34.843838074048008, 32.154161611153931 ] } },
{ "type": "Feature", "properties": { "OBJECTID": 28, "מקלט": 128.0, "כתובת": "יוסף נבו 6", "תיאור": "אגף תב\"ל", "number_mik": 128.0, "open_1": null, "סוג": "מרחב ציבורי", "address": "יוסף נבו 6, הרצליה", "notes": null, "status": "מרחב ציבורי" }, "geometry": { "type": "Point", "coordinates": [ 34.823804655659046, 32.16661061629113 ] } },
{ "type": "Feature", "properties": { "OBJECTID": 29, "מקלט": 129.0, "כתובת": " רבן גמליאל 13 פינת חדווה", "תיאור": "אמן", "number_mik": 129.0, "open_1": 1, "סוג": "מרחב ציבורי", "address": " רבן גמליאל 13 פינת חדווה, הרצליה", "notes": null, "status": "מרחב ציבורי" }, "geometry": { "type": "Point", "coordinates": [ 34.862054867786092, 32.161228082401571 ] } },
{ "type": "Feature", "properties": { "OBJECTID": 30, "מקלט": 130.0, "כתובת": "מעפילי מרוקו 24", "תיאור": "השומר הצעיר", "number_mik": 130.0, "open_1": 1, "סוג": "מרחב ציבורי", "address": "מעפילי מרוקו 24, הרצליה", "notes": null, "status": "מרחב ציבורי" }, "geometry": { "type": "Point", "coordinates": [ 34.855414206350744, 32.176260645449098 ] } },
{ "type": "Feature", "properties": { "OBJECTID": 31, "מקלט": 131.0, "כתובת": "הרי גלעד 51", "תיאור": "בטיפול", "number_mik": 131.0, "open_1": 1, "סוג": "מרחב ציבורי", "address": "הרי גלעד 51, הרצליה", "notes": null, "status": "מרחב ציבורי" }, "geometry": { "type": "Point", "coordinates": [ 34.854919457251583, 32.175321428941132 ] } },
{ "type": "Feature", "properties": { "OBJECTID": 32, "מקלט": 132.0, "כתובת": "הר סיני  15", "תיאור": "תיאטרון רוסי", "number_mik": 132.0, "open_1": 1, "סוג": "מרחב ציבורי", "address": "הר סיני  15, הרצליה", "notes": null, "status": "מרחב ציבורי" }, "geometry": { "type": "Point", "coordinates": [ 34.852754881722625, 32.172979820532582 ] } },
{ "type": "Feature", "properties": { "OBJECTID": 33, "מקלט": 133.0, "כתובת": "החורש 15", "תיאור": "יעקב נורי", "number_mik": 133.0, "open_1": 1, "סוג": "מרחב ציבורי", "address": "החורש 15, הרצליה", "notes": null, "status": "מרחב ציבורי" }, "geometry": { "type": "Point", "coordinates": [ 34.852672177078894, 32.172429505105676 ] } },
{ "type": "Feature", "properties": { "OBJECTID": 34, "מקלט": 159.0, "כתובת": "רביבים 23", "תיאור": "אמן", "number_mik": 159.0, "open_1": 1, "סוג": "מרחב ציבורי", "address": "רביבים 23, הרצליה", "notes": null, "status": "מרחב ציבורי" }, "geometry": { "type": "Point", "coordinates": [ 34.853174339740178, 32.174189370401557 ] } },
{ "type": "Feature", "properties": { "OBJECTID": 35, "מקלט": 135.0, "כתובת": "אלרועי 1", "תיאור": "ביה\"ס בן צבי", "number_mik": 135.0, "open_1": null, "סוג": "מוסד חינוכי", "address": "אלרועי 1, הרצליה", "notes": null, "status": "מוסד חינוכי" }, "geometry": { "type": "Point", "coordinates": [ 34.838024121225082, 32.158049619854864 ] } },
{ "type": "Feature", "properties": { "OBJECTID": 36, "מקלט": 136.0, "כתובת": "הצנחנים 2", "תיאור": "אמן", "number_mik": 136.0, "open_1": 1, "סוג": "מרחב ציבורי", "address": "הצנחנים 2, הרצליה", "notes": null, "status": "מרחב ציבורי" }, "geometry": { "type": "Point", "coordinates": [ 34.839649582514056, 32.157161553866729 ] } },
{ "type": "Feature", "properties": { "OBJECTID": 37, "מקלט": 137.0, "כתובת": "עוזיאל 85", "תיאור": "אמן", "number_mik": 137.0, "open_1": 1, "סוג": "מרחב ציבורי", "address": "עוזיאל 85, הרצליה", "notes": null, "status": "מרחב ציבורי" }, "geometry": { "type": "Point", "coordinates": [ 34.837950253136334, 32.155317009290101 ] } },
{ "type": "Feature", "properties": { "OBJECTID": 38, "מקלט": 138.0, "כתובת": "רוחמה 2", "תיאור": "ביה\"ס נתיב", "number_mik": 138.0, "open_1": 1, "סוג": "מוסד חינוכי", "address": "רוחמה 2, הרצליה", "notes": null, "status": "מוסד חינוכי" }, "geometry": { "type": "Point", "coordinates": [ 34.834382627678345, 32.156767510079945 ] } },
{ "type": "Feature", "properties": { "OBJECTID": 39, "מקלט": 139.0, "כתובת": "ויצמן 14", "תיאור": "ביה\"ס ויצמן", "number_mik": 139.0, "open_1": null, "סוג": "מוסד חינוכי", "address": "ויצמן 14, הרצליה", "notes": null, "status": "מוסד חינוכי" }, "geometry": { "type": "Point", "coordinates": [ 34.836228527110173, 32.164329815718929 ] } },
{ "type": "Feature", "properties": { "OBJECTID": 40, "מקלט": 140.0, "כתובת": "יגאל אלון 42", "תיאור": "ביה\"ס ברנר", "number_mik": 140.0, "open_1": null, "סוג": "מוסד חינוכי", "address": "יגאל אלון 42, הרצליה", "notes": null, "status": "מוסד חינוכי" }, "geometry": { "type": "Point", "coordinates": [ 34.850863031397537, 32.168682075241499 ] } },
{ "type": "Feature", "properties": { "OBJECTID": 41, "מקלט": 141.0, "כתובת": "רבן גמליאל", "תיאור": "מרכז תורה", "number_mik": 141.0, "open_1": 1, "סוג": "מרחב ציבורי", "address": "רבן גמליאל, הרצליה", "notes": null, "status": "מרחב ציבורי" }, "geometry": { "type": "Point", "coordinates": [ 34.860166825278711, 32.161502510683718 ] } },
{ "type": "Feature", "properties": { "OBJECTID": 42, "מקלט": 142.0, "כתובת": "סנהדרין-יצחק שדה 64", "תיאור": "שאיפ\"ה", "number_mik": 142.0, "open_1": 1, "סוג": "מרחב ציבורי", "address": "סנהדרין-יצחק שדה 64, הרצליה", "notes": null, "status": "מרחב ציבורי" }, "geometry": { "type": "Point", "coordinates": [ 34.861167674132901, 32.163173525694383 ] } },
{ "type": "Feature", "properties": { "OBJECTID": 43, "מקלט": 143.0, "כתובת": "ההגנה 64", "תיאור": "ביה\"ס יוחנני", "number_mik": 143.0, "open_1": null, "סוג": "מוסד חינוכי", "address": "ההגנה 64, הרצליה", "notes": null, "status": "מוסד חינוכי" }, "geometry": { "type": "Point", "coordinates": [ 34.851037881050615, 32.172821732330085 ] } },
{ "type": "Feature", "properties": { "OBJECTID": 44, "מקלט": 144.0, "כתובת": "שמואל הנגיד 21", "תיאור": "שמואל הנגיד", "number_mik": 144.0, "open_1": null, "סוג": "מוסד חינוכי", "address": "שמואל הנגיד 21, הרצליה", "notes": null, "status": "מוסד חינוכי" }, "geometry": { "type": "Point", "coordinates": [ 34.83317626794711, 32.16670159286415 ] } },
{ "type": "Feature", "properties": { "OBJECTID": 45, "מקלט": 145.0, "כתובת": "האבוקה 5", "תיאור": "אמן", "number_mik": 145.0, "open_1": 1, "סוג": "מרחב ציבורי", "address": "האבוקה 5, הרצליה", "notes": null, "status": "מרחב ציבורי" }, "geometry": { "type": "Point", "coordinates": [ 34.862261054628853, 32.168460923330095 ] } },
{ "type": "Feature", "properties": { "OBJECTID": 46, "מקלט": 146.0, "כתובת": "האר\"י 17", "תיאור": " ", "number_mik": 146.0, "open_1": 1, "סוג": "מרחב ציבורי", "address": "האר\"י 17, הרצליה", "notes": null, "status": "מרחב ציבורי" }, "geometry": { "type": "Point", "coordinates": [ 34.856286273150729, 32.161636175784913 ] } },
{ "type": "Feature", "properties": { "OBJECTID": 47, "מקלט": 147.0, "כתובת": "יצחק שדה 13", "תיאור": "זק\"א", "number_mik": 147.0, "open_1": 1, "סוג": "מרחב ציבורי", "address": "יצחק שדה 13, הרצליה", "notes": null, "status": "מרחב ציבורי" }, "geometry": { "type": "Point", "coordinates": [ 34.85409816391897, 32.162748343516775 ] } },
{ "type": "Feature", "properties": { "OBJECTID": 48, "מקלט": 148.0, "כתובת": "פורצי הדרך 34", "תיאור": "אנטנות נ.עמל", "number_mik": 148.0, "open_1": 1, "סוג": "מרחב ציבורי", "address": "פורצי הדרך 34, הרצליה", "notes": null, "status": "מרחב ציבורי" }, "geometry": { "type": "Point", "coordinates": [ 34.862601469230604, 32.165314629252336 ] } },
{ "type": "Feature", "properties": { "OBJECTID": 49, "מקלט": 149.0, "כתובת": "גיל 75 - 77", "תיאור": "נוער", "number_mik": 149.0, "open_1": 1, "סוג": "מרחב ציבורי", "address": "גיל 75 - 77, הרצליה", "notes": null, "status": "מרחב ציבורי" }, "geometry": { "type": "Point", "coordinates": [ 34.862803101807934, 32.159579844928558 ] } },
{ "type": "Feature", "properties": { "OBJECTID": 50, "מקלט": 150.0, "כתובת": "י.ל.פרץ 33", "תיאור": "פרוייקט המזון", "number_mik": 150.0, "open_1": null, "סוג": "מרחב ציבורי", "address": "י.ל.פרץ 33, הרצליה", "notes": null, "status": "מרחב ציבורי" }, "geometry": { "type": "Point", "coordinates": [ 34.858626428855459, 32.162355001471084 ] } },
{ "type": "Feature", "properties": { "OBJECTID": 51, "מקלט": 151.0, "כתובת": "הרקפות 3", "תיאור": "אמן", "number_mik": 151.0, "open_1": 1, "סוג": "מרחב ציבורי", "address": "הרקפות 3, הרצליה", "notes": null, "status": "מרחב ציבורי" }, "geometry": { "type": "Point", "coordinates": [ 34.855637439700665, 32.167766497113377 ] } },
{ "type": "Feature", "properties": { "OBJECTID": 52, "מקלט": 152.0, "כתובת": "גיבורי עציון 22", "תיאור": "בית פוסטר", "number_mik": 152.0, "open_1": 1, "סוג": "מרחב ציבורי", "address": "גיבורי עציון 22, הרצליה", "notes": null, "status": "מרחב ציבורי" }, "geometry": { "type": "Point", "coordinates": [ 34.859065861029066, 32.163898247512527 ] } },
{ "type": "Feature", "properties": { "OBJECTID": 53, "מקלט": 153.0, "כתובת": "הנוטרים 11", "תיאור": "ביה\"ס שזר", "number_mik": 153.0, "open_1": null, "סוג": "מוסד חינוכי", "address": "הנוטרים 11, הרצליה", "notes": null, "status": "מוסד חינוכי" }, "geometry": { "type": "Point", "coordinates": [ 34.851583026193474, 32.166177137011175 ] } },
{ "type": "Feature", "properties": { "OBJECTID": 54, "מקלט": 154.0, "כתובת": "הדר 37 (גן ציבורי אורן)", "תיאור": "סטודיו לאמנות", "number_mik": 154.0, "open_1": 1, "סוג": "מרחב ציבורי", "address": "הדר 37 (גן ציבורי אורן), הרצליה", "notes": null, "status": "מרחב ציבורי" }, "geometry": { "type": "Point", "coordinates": [ 34.849273054957429, 32.171328853093918 ] } },
{ "type": "Feature", "properties": { "OBJECTID": 55, "מקלט": 155.0, "כתובת": "הכוזרי 3", "תיאור": "תיאטרון עירוני", "number_mik": 155.0, "open_1": 1, "סוג": "מרחב ציבורי", "address": "הכוזרי 3, הרצליה", "notes": null, "status": "מרחב ציבורי" }, "geometry": { "type": "Point", "coordinates": [ 34.848070446535822, 32.164327658438623 ] } },
{ "type": "Feature", "properties": { "OBJECTID": 56, "מקלט": 156.0, "כתובת": "שכ' גורדון רח' בית\"ר", "תיאור": "תנועת הצופים", "number_mik": 156.0, "open_1": 1, "סוג": "מרחב ציבורי", "address": "שכ' גורדון רח' בית\"ר, הרצליה", "notes": null, "status": "מרחב ציבורי" }, "geometry": { "type": "Point", "coordinates": [ 34.850376049749229, 32.160276118945028 ] } },
{ "type": "Feature", "properties": { "OBJECTID": 57, "מקלט": 157.0, "כתובת": "הקוצרים 10", "תיאור": "נוער לנוער", "number_mik": 157.0, "open_1": 1, "סוג": "מרחב ציבורי", "address": "הקוצרים 10, הרצליה", "notes": null, "status": "מרחב ציבורי" }, "geometry": { "type": "Point", "coordinates": [ 34.836558022066917, 32.166756561837637 ] } },
{ "type": "Feature", "properties": { "OBJECTID": 58, "מקלט": 158.0, "כתובת": "רביבים 47", "תיאור": "קונסרבטוריון", "number_mik": 158.0, "open_1": 1, "סוג": "מרחב ציבורי", "address": "רביבים 47, הרצליה", "notes": null, "status": "מרחב ציבורי" }, "geometry": { "type": "Point", "coordinates": [ 34.852440577024346, 32.174755451326831 ] } },
{ "type": "Feature", "properties": { "OBJECTID": 59, "מקלט": 134.0, "כתובת": "רביבים 15", "תיאור": "מתנ\"ס", "number_mik": 134.0, "open_1": 1, "סוג": "מרחב ציבורי", "address": "רביבים 15, הרצליה", "notes": null, "status": "מרחב ציבורי" }, "geometry": { "type": "Point", "coordinates": [ 34.85214627281443, 32.174087315356658 ] } },
{ "type": "Feature", "properties": { "OBJECTID": 60, "מקלט": 160.0, "כתובת": "הרי גולן 4 -2", "תיאור": "אומן-מייק לאור", "number_mik": 160.0, "open_1": 1, "סוג": "מרחב ציבורי", "address": "הרי גולן 4 -2, הרצליה", "notes": null, "status": "מרחב ציבורי" }, "geometry": { "type": "Point", "coordinates": [ 34.852965200412385, 32.17619073894496 ] } },
{ "type": "Feature", "properties": { "OBJECTID": 61, "מקלט": 161.0, "כתובת": "הר שומרון  (ליד מגדל מים)", "תיאור": "N.A.", "number_mik": 161.0, "open_1": 1, "סוג": "מרחב ציבורי", "address": "הר שומרון  (ליד מגדל מים), הרצליה", "notes": null, "status": "מרחב ציבורי" }, "geometry": { "type": "Point", "coordinates": [ 34.856689148561074, 32.175578805219338 ] } },
{ "type": "Feature", "properties": { "OBJECTID": 62, "מקלט": 162.0, "כתובת": "הרי גלעד 12", "תיאור": "אמן", "number_mik": 162.0, "open_1": 1, "סוג": "מרחב ציבורי", "address": "הרי גלעד 12, הרצליה", "notes": null, "status": "מרחב ציבורי" }, "geometry": { "type": "Point", "coordinates": [ 34.853700976591604, 32.175101628858336 ] } },
{ "type": "Feature", "properties": { "OBJECTID": 63, "מקלט": 163.0, "כתובת": "הר סיני 36  פינת הר נבו", "תיאור": "מועדון חברתי", "number_mik": 163.0, "open_1": 1, "סוג": "מרחב ציבורי", "address": "הר סיני 36  פינת הר נבו, הרצליה", "notes": null, "status": "מרחב ציבורי" }, "geometry": { "type": "Point", "coordinates": [ 34.855867804362617, 32.174088608522297 ] } },
{ "type": "Feature", "properties": { "OBJECTID": 64, "מקלט": 164.0, "כתובת": "רביבים 1", "תיאור": "תיכון דור", "number_mik": 164.0, "open_1": null, "סוג": "מוסד חינוכי", "address": "רביבים 1, הרצליה", "notes": null, "status": "מוסד חינוכי" }, "geometry": { "type": "Point", "coordinates": [ 34.854530590786496, 32.171650111645505 ] } },
{ "type": "Feature", "properties": { "OBJECTID": 65, "מקלט": 165.0, "כתובת": "אשר ברש 7", "תיאור": "ביה\"ס אלון", "number_mik": 165.0, "open_1": null, "סוג": "מוסד חינוכי", "address": "אשר ברש 7, הרצליה", "notes": null, "status": "מוסד חינוכי" }, "geometry": { "type": "Point", "coordinates": [ 34.83853145297067, 32.171686000552583 ] } },
{ "type": "Feature", "properties": { "OBJECTID": 66, "מקלט": 166.0, "כתובת": "סעדיה גאון25", "תיאור": "מועדון אמנות", "number_mik": 166.0, "open_1": 1, "סוג": "מרחב ציבורי", "address": "סעדיה גאון25, הרצליה", "notes": null, "status": "מרחב ציבורי" }, "geometry": { "type": "Point", "coordinates": [ 34.837118287012238, 32.153952906865193 ] } },
{ "type": "Feature", "properties": { "OBJECTID": 67, "מקלט": 167.0, "כתובת": "רמז 43 ב (רכב ישראל)", "תיאור": "עזר מציון", "number_mik": 167.0, "open_1": null, "סוג": "מרחב ציבורי", "address": "רמז 43 ב (רכב ישראל), הרצליה", "notes": null, "status": "מרחב ציבורי" }, "geometry": { "type": "Point", "coordinates": [ 34.853615128691807, 32.164307085600704 ] } },
{ "type": "Feature", "properties": { "OBJECTID": 68, "מקלט": 103.0, "כתובת": "הר מירון 43", "תיאור": "גנון – מתנ\"ס", "number_mik": 103.0, "open_1": null, "סוג": "מרחב ציבורי", "address": "הר מירון 43, הרצליה", "notes": null, "status": "מרחב ציבורי" }, "geometry": { "type": "Point", "coordinates": [ 34.836571067348267, 32.15823477715962 ] } },
{ "type": "Feature", "properties": { "OBJECTID": 69, "מקלט": 169.0, "כתובת": " (יד שרה) אחווה 7", "תיאור": "יד שרה", "number_mik": 169.0, "open_1": null, "סוג": "מרחב ציבורי", "address": " (יד שרה) אחווה 7, הרצליה", "notes": null, "status": "מרחב ציבורי" }, "geometry": { "type": "Point", "coordinates": [ 34.855804993931137, 32.171094527263946 ] } },
{ "type": "Feature", "properties": { "OBJECTID": 70, "מקלט": 170.0, "כתובת": "שמואל הנגיד 21", "תיאור": "שמואל הנגיד", "number_mik": 170.0, "open_1": null, "סוג": "מוסד חינוכי", "address": "שמואל הנגיד 21, הרצליה", "notes": null, "status": "מוסד חינוכי" }, "geometry": { "type": "Point", "coordinates": [ 34.833558549509029, 32.166549411747248 ] } },
{ "type": "Feature", "properties": { "OBJECTID": 71, "מקלט": 171.0, "כתובת": "ויצמן 14", "תיאור": "ביה\"ס ויצמן", "number_mik": 171.0, "open_1": null, "סוג": "מוסד חינוכי", "address": "ויצמן 14, הרצליה", "notes": null, "status": "מוסד חינוכי" }, "geometry": { "type": "Point", "coordinates": [ 34.836621105233455, 32.164249797588106 ] } },
{ "type": "Feature", "properties": { "OBJECTID": 72, "מקלט": 172.0, "כתובת": "הדקל 27", "תיאור": "ביה\"ס אילנות", "number_mik": 172.0, "open_1": null, "סוג": "מוסד חינוכי", "address": "הדקל 27, הרצליה", "notes": null, "status": "מוסד חינוכי" }, "geometry": { "type": "Point", "coordinates": [ 34.850306542616593, 32.178239378088456 ] } },
{ "type": "Feature", "properties": { "OBJECTID": 73, "מקלט": 173.0, "כתובת": "הבנים 2", "תיאור": "חמ\"ל יד לבנים", "number_mik": 173.0, "open_1": null, "סוג": "מרחב ציבורי", "address": "הבנים 2, הרצליה", "notes": null, "status": "מרחב ציבורי" }, "geometry": { "type": "Point", "coordinates": [ 34.844071774264876, 32.162115986462155 ] } },
{ "type": "Feature", "properties": { "OBJECTID": 74, "מקלט": 174.0, "כתובת": "אבן עזרא 13", "תיאור": "חט\"ב בן גוריון", "number_mik": 174.0, "open_1": null, "סוג": "מוסד חינוכי", "address": "אבן עזרא 13, הרצליה", "notes": null, "status": "מוסד חינוכי" }, "geometry": { "type": "Point", "coordinates": [ 34.82979983421577, 32.165347986979192 ] } },
{ "type": "Feature", "properties": { "OBJECTID": 75, "מקלט": 175.0, "כתובת": "אבן עזרא 14", "תיאור": "חט\"ב בן גוריון", "number_mik": 175.0, "open_1": null, "סוג": "מוסד חינוכי", "address": "אבן עזרא 14, הרצליה", "notes": null, "status": "מוסד חינוכי" }, "geometry": { "type": "Point", "coordinates": [ 34.829417958000441, 32.165400962226542 ] } },
{ "type": "Feature", "properties": { "OBJECTID": 76, "מקלט": 176.0, "כתובת": "דוד שמעוני", "תיאור": "תיכון היובל", "number_mik": 176.0, "open_1": null, "סוג": "מוסד חינוכי", "address": "דוד שמעוני, הרצליה", "notes": null, "status": "מוסד חינוכי" }, "geometry": { "type": "Point", "coordinates": [ 34.835524506304289, 32.173291450090424 ] } },
{ "type": "Feature", "properties": { "OBJECTID": 77, "מקלט": 177.0, "כתובת": "דוד שמעוני", "תיאור": "תיכון היובל", "number_mik": 177.0, "open_1": null, "סוג": "מוסד חינוכי", "address": "דוד שמעוני, הרצליה", "notes": null, "status": "מוסד חינוכי" }, "geometry": { "type": "Point", "coordinates": [ 34.835512994868083, 32.173516861157808 ] } },
{ "type": "Feature", "properties": { "OBJECTID": 78, "מקלט": 178.0, "כתובת": "זיסו 10", "תיאור": "חט\"ב  בוסתן", "number_mik": 178.0, "open_1": null, "סוג": "מוסד חינוכי", "address": "זיסו 10, הרצליה", "notes": null, "status": "מוסד חינוכי" }, "geometry": { "type": "Point", "coordinates": [ 34.853786619389311, 32.17765390071758 ] } },
{ "type": "Feature", "properties": { "OBJECTID": 79, "מקלט": 179.0, "כתובת": "זיסו 11", "תיאור": "חט\"ב  בוסתן", "number_mik": 179.0, "open_1": null, "סוג": "מוסד חינוכי", "address": "זיסו 11, הרצליה", "notes": null, "status": "מוסד חינוכי" }, "geometry": { "type": "Point", "coordinates": [ 34.853732498294065, 32.177942319848263 ] } },
{ "type": "Feature", "properties": { "OBJECTID": 80, "מקלט": 180.0, "כתובת": "יהודה הנשיא  90", "תיאור": "חט\"ב זאב", "number_mik": 180.0, "open_1": null, "סוג": "מוסד חינוכי", "address": "יהודה הנשיא  90, הרצליה", "notes": null, "status": "מוסד חינוכי" }, "geometry": { "type": "Point", "coordinates": [ 34.847857922245076, 32.150845428227704 ] } },
{ "type": "Feature", "properties": { "OBJECTID": 81, "מקלט": 181.0, "כתובת": "יהודה הנשיא  90", "תיאור": "חט\"ב זאב", "number_mik": 181.0, "open_1": null, "סוג": "מוסד חינוכי", "address": "יהודה הנשיא  90, הרצליה", "notes": null, "status": "מוסד חינוכי" }, "geometry": { "type": "Point", "coordinates": [ 34.848112073211425, 32.150909268967546 ] } },
{ "type": "Feature", "properties": { "OBJECTID": 82, "מקלט": 102.0, "כתובת": "הגאון מוילנה 13", "תיאור": "הנוער הלאומי", "number_mik": 102.0, "open_1": 1, "סוג": "מרחב ציבורי", "address": "הגאון מוילנה 13, הרצליה", "notes": null, "status": "מרחב ציבורי" }, "geometry": { "type": "Point", "coordinates": [ 34.843239445293065, 32.152744106265004 ] } },
{ "type": "Feature", "properties": { "OBJECTID": 83, "מקלט": 183.0, "כתובת": "בר אילן 20", "תיאור": "קלוב תעופה", "number_mik": 183.0, "open_1": 1, "סוג": "מרחב ציבורי", "address": "בר אילן 20, הרצליה", "notes": null, "status": "מרחב ציבורי" }, "geometry": { "type": "Point", "coordinates": [ 34.838785807682797, 32.16375107628015 ] } },
{ "type": "Feature", "properties": { "OBJECTID": 84, "מקלט": 184.0, "כתובת": "בן גוריון 12 (אגף החינוך)", "תיאור": "מפקדת הג\"א", "number_mik": 184.0, "open_1": 1, "סוג": "מרחב ציבורי", "address": "בן גוריון 12 (אגף החינוך), הרצליה", "notes": null, "status": "מרחב ציבורי" }, "geometry": { "type": "Point", "coordinates": [ 34.842419607497924, 32.164383755737354 ] } },
{ "type": "Feature", "properties": { "OBJECTID": 85, "מקלט": 185.0, "כתובת": "הרב גורן  7", "תיאור": "מועצה דתית", "number_mik": 185.0, "open_1": 1, "סוג": "מרחב ציבורי", "address": "הרב גורן  7, הרצליה", "notes": null, "status": "מרחב ציבורי" }, "geometry": { "type": "Point", "coordinates": [ 34.852631068165429, 32.163817391163761 ] } },
{ "type": "Feature", "properties": { "OBJECTID": 86, "מקלט": 186.0, "כתובת": "הדקל 27", "תיאור": "ביה\"ס אילנות", "number_mik": 186.0, "open_1": null, "סוג": "מוסד חינוכי", "address": "הדקל 27, הרצליה", "notes": null, "status": "מוסד חינוכי" }, "geometry": { "type": "Point", "coordinates": [ 34.850094412113172, 32.178256819501179 ] } },
{ "type": "Feature", "properties": { "OBJECTID": 87, "מקלט": 187.0, "כתובת": "דוד רזיאל", "תיאור": "תיכון על\"ה", "number_mik": 187.0, "open_1": null, "סוג": "מוסד חינוכי", "address": "דוד רזיאל, הרצליה", "notes": null, "status": "מוסד חינוכי" }, "geometry": { "type": "Point", "coordinates": [ 34.85009608128118, 32.155919731014329 ] } },
{ "type": "Feature", "properties": { "OBJECTID": 88, "מקלט": 188.0, "כתובת": "זיסו 10", "תיאור": "חט\"ב  בוסתן", "number_mik": 188.0, "open_1": null, "סוג": "מוסד חינוכי", "address": "זיסו 10, הרצליה", "notes": null, "status": "מוסד חינוכי" }, "geometry": { "type": "Point", "coordinates": [ 34.854157757824616, 32.177645911377631 ] } },
{ "type": "Feature", "properties": { "OBJECTID": 89, "מקלט": 189.0, "כתובת": "מורדי הגטאות 58", "תיאור": "ביה\"ס וולפסון", "number_mik": 189.0, "open_1": null, "סוג": "מוסד חינוכי", "address": "מורדי הגטאות 58, הרצליה", "notes": null, "status": "מוסד חינוכי" }, "geometry": { "type": "Point", "coordinates": [ 34.860909229387183, 32.169891089867107 ] } },
{ "type": "Feature", "properties": { "OBJECTID": 90, "מקלט": 190.0, "כתובת": "גיבורי עציון 20", "תיאור": "בית פוסטר", "number_mik": 190.0, "open_1": 1, "סוג": "מרחב ציבורי", "address": "גיבורי עציון 20, הרצליה", "notes": null, "status": "מרחב ציבורי" }, "geometry": { "type": "Point", "coordinates": [ 34.858239737832285, 32.163688579748516 ] } },
{ "type": "Feature", "properties": { "OBJECTID": 91, "מקלט": 191.0, "כתובת": "רחל 11", "תיאור": "בית כנסת", "number_mik": 191.0, "open_1": 1, "סוג": "מרחב ציבורי", "address": "רחל 11, הרצליה", "notes": null, "status": "מרחב ציבורי" }, "geometry": { "type": "Point", "coordinates": [ 34.859777359504001, 32.172025229292387 ] } },
{ "type": "Feature", "properties": { "OBJECTID": 92, "מקלט": 192.0, "כתובת": "דוד רזיאל", "תיאור": "תיכון על\"ה", "number_mik": 192.0, "open_1": null, "סוג": "מוסד חינוכי", "address": "דוד רזיאל, הרצליה", "notes": null, "status": "מוסד חינוכי" }, "geometry": { "type": "Point", "coordinates": [ 34.849989692802019, 32.156018628993479 ] } },
{ "type": "Feature", "properties": { "OBJECTID": 93, "מקלט": 193.0, "כתובת": "דוד רזיאל", "תיאור": "תיכון על\"ה", "number_mik": 193.0, "open_1": null, "סוג": "מוסד חינוכי", "address": "דוד רזיאל, הרצליה", "notes": null, "status": "מוסד חינוכי" }, "geometry": { "type": "Point", "coordinates": [ 34.849798640049897, 32.156081218324708 ] } },
{ "type": "Feature", "properties": { "OBJECTID": 94, "מקלט": 194.0, "כתובת": "דוד רזיאל", "תיאור": "תיכון על\"ה", "number_mik": 194.0, "open_1": null, "סוג": "מוסד חינוכי", "address": "דוד רזיאל, הרצליה", "notes": null, "status": "מוסד חינוכי" }, "geometry": { "type": "Point", "coordinates": [ 34.850073728632914, 32.156217256360797 ] } },
{ "type": "Feature", "properties": { "OBJECTID": 95, "מקלט": 205.0, "כתובת": "שבעת הכוכבים 121", "תיאור": "תיכון עירוני חדש", "number_mik": 205.0, "open_1": null, "סוג": "מוסד חינוכי", "address": "שבעת הכוכבים 121, הרצליה", "notes": null, "status": "מוסד חינוכי" }, "geometry": { "type": "Point", "coordinates": [ 34.826230999949587, 32.164399516844789 ] } },
{ "type": "Feature", "properties": { "OBJECTID": 96, "מקלט": 206.0, "כתובת": "הברוש 29", "תיאור": "ביה\"ס נוף ים", "number_mik": 206.0, "open_1": null, "סוג": "מוסד חינוכי", "address": "הברוש 29, הרצליה", "notes": null, "status": "מוסד חינוכי" }, "geometry": { "type": "Point", "coordinates": [ 34.81345872287293, 32.186129591054801 ] } },
{ "type": "Feature", "properties": { "OBJECTID": 97, "מקלט": 207.0, "כתובת": "נורדאו 26", "תיאור": "ביה\"ס ברנדיס", "number_mik": 207.0, "open_1": null, "סוג": "מוסד חינוכי", "address": "נורדאו 26, הרצליה", "notes": null, "status": "מוסד חינוכי" }, "geometry": { "type": "Point", "coordinates": [ 34.817044448335587, 32.170738274973836 ] } },
{ "type": "Feature", "properties": { "OBJECTID": 98, "מקלט": 208.0, "כתובת": "החרוב 9", "תיאור": "מועדון פינג-פונג", "number_mik": 208.0, "open_1": 1, "סוג": "מרחב ציבורי", "address": "החרוב 9, הרצליה", "notes": null, "status": "מרחב ציבורי" }, "geometry": { "type": "Point", "coordinates": [ 34.809645071600407, 32.18770486745958 ] } },
{ "type": "Feature", "properties": { "OBJECTID": 99, "מקלט": 209.0, "כתובת": "מאחורי הויטרינר", "תיאור": "חט\"ב יד גיורא", "number_mik": 209.0, "open_1": 1, "סוג": "מוסד חינוכי", "address": "מאחורי הויטרינר, הרצליה", "notes": null, "status": "מוסד חינוכי" }, "geometry": { "type": "Point", "coordinates": [ 34.827256214375758, 32.165160072498573 ] } },
{ "type": "Feature", "properties": { "OBJECTID": 100, "מקלט": 210.0, "כתובת": "הפועל 2", "תיאור": "משמר אזרחי", "number_mik": 210.0, "open_1": 1, "סוג": "מרחב ציבורי", "address": "הפועל 2, הרצליה", "notes": null, "status": "מרחב ציבורי" }, "geometry": { "type": "Point", "coordinates": [ 34.814280556710031, 32.187367562024605 ] } },
{ "type": "Feature", "properties": { "OBJECTID": 101, "מקלט": 211.0, "כתובת": "העירית 31", "תיאור": "אמן-נעמי מילר", "number_mik": 211.0, "open_1": 1, "סוג": "מרחב ציבורי", "address": "העירית 31, הרצליה", "notes": null, "status": "מרחב ציבורי" }, "geometry": { "type": "Point", "coordinates": [ 34.81388892484793, 32.184715132278136 ] } },
{ "type": "Feature", "properties": { "OBJECTID": 102, "מקלט": 212.0, "כתובת": "הפועל 14", "תיאור": "אמן", "number_mik": 212.0, "open_1": 1, "סוג": "מרחב ציבורי", "address": "הפועל 14, הרצליה", "notes": null, "status": "מרחב ציבורי" }, "geometry": { "type": "Point", "coordinates": [ 34.814815676867212, 32.188703839731296 ] } },
{ "type": "Feature", "properties": { "OBJECTID": 103, "מקלט": 213.0, "כתובת": "סוף רח' יגאל ידין", "תיאור": "אמן", "number_mik": 213.0, "open_1": 1, "סוג": "מרחב ציבורי", "address": "סוף רח' יגאל ידין, הרצליה", "notes": null, "status": "מרחב ציבורי" }, "geometry": { "type": "Point", "coordinates": [ 34.807740092747238, 32.186833201452345 ] } },
{ "type": "Feature", "properties": { "OBJECTID": 104, "מקלט": 214.0, "כתובת": "נתיב הל\"ה (בחורשה)", "תיאור": "אמן", "number_mik": 214.0, "open_1": 1, "סוג": "מרחב ציבורי", "address": "נתיב הל\"ה (בחורשה), הרצליה", "notes": null, "status": "מרחב ציבורי" }, "geometry": { "type": "Point", "coordinates": [ 34.809499546295491, 32.189480910231921 ] } },
{ "type": "Feature", "properties": { "OBJECTID": 105, "מקלט": 215.0, "כתובת": "שבעת הכוכבים 122", "תיאור": "תיכון עירוני חדש", "number_mik": 215.0, "open_1": null, "סוג": "מוסד חינוכי", "address": "שבעת הכוכבים 122, הרצליה", "notes": null, "status": "מוסד חינוכי" }, "geometry": { "type": "Point", "coordinates": [ 34.826984405990267, 32.164230428960046 ] } },
{ "type": "Feature", "properties": { "OBJECTID": 106, "מקלט": 216.0, "כתובת": "שבעת הכוכבים 122", "תיאור": "חט\"ב יד גיורא", "number_mik": 216.0, "open_1": null, "סוג": "מוסד חינוכי", "address": "שבעת הכוכבים 122, הרצליה", "notes": null, "status": "מוסד חינוכי" }, "geometry": { "type": "Point", "coordinates": [ 34.826781454242649, 32.164599552820754 ] } },
{ "type": "Feature", "properties": { "OBJECTID": 107, "מקלט": 217.0, "כתובת": "יוסף נבו 8", "תיאור": "חדר שחקנים", "number_mik": 217.0, "open_1": null, "סוג": "מרחב ציבורי", "address": "יוסף נבו 8, הרצליה", "notes": null, "status": "מרחב ציבורי" }, "geometry": { "type": "Point", "coordinates": [ 34.824698500064756, 32.168371771612279 ] } },
{ "type": "Feature", "properties": { "OBJECTID": 108, "מקלט": 218.0, "כתובת": "נורדאו 26", "תיאור": "ביה\"ס ברנדיס", "number_mik": 218.0, "open_1": null, "סוג": "מוסד חינוכי", "address": "נורדאו 26, הרצליה", "notes": null, "status": "מוסד חינוכי" }, "geometry": { "type": "Point", "coordinates": [ 34.816101739599794, 32.170527975331503 ] } },
{ "type": "Feature", "properties": { "OBJECTID": 109, "מקלט": 219.0, "כתובת": "מדינת היהודים", "תיאור": "חט\"ב סמדר", "number_mik": 219.0, "open_1": null, "סוג": "מוסד חינוכי", "address": "מדינת היהודים, הרצליה", "notes": null, "status": "מוסד חינוכי" }, "geometry": { "type": "Point", "coordinates": [ 34.803185900874759, 32.168639019342685 ] } },
{ "type": "Feature", "properties": { "OBJECTID": 110, "מקלט": 220.0, "כתובת": "הברוש 29", "תיאור": "מתנ\"ס נוף ים", "number_mik": 220.0, "open_1": null, "סוג": "מוסד חינוכי", "address": "הברוש 29, הרצליה", "notes": null, "status": "מוסד חינוכי" }, "geometry": { "type": "Point", "coordinates": [ 34.813530560394092, 32.186688914086801 ] } },
{ "type": "Feature", "properties": { "OBJECTID": 111, "מקלט": 221.0, "כתובת": "יוסף נבו 8", "תיאור": "איצטדיון", "number_mik": 221.0, "open_1": null, "סוג": "מרחב ציבורי", "address": "יוסף נבו 8, הרצליה", "notes": null, "status": "מרחב ציבורי" }, "geometry": { "type": "Point", "coordinates": [ 34.824646314080944, 32.16817322359929 ] } },
{ "type": "Feature", "properties": { "OBJECTID": 112, "מקלט": 222.0, "כתובת": "יוסף נבו 8", "תיאור": "איצטדיון", "number_mik": 222.0, "open_1": null, "סוג": "מרחב ציבורי", "address": "יוסף נבו 8, הרצליה", "notes": null, "status": "מרחב ציבורי" }, "geometry": { "type": "Point", "coordinates": [ 34.824583601364338, 32.16795660837218 ] } },
{ "type": "Feature", "properties": { "OBJECTID": 113, "מקלט": 223.0, "כתובת": "יוסף נבו 8", "תיאור": "מועדון טניס", "number_mik": 223.0, "open_1": null, "סוג": "מרחב ציבורי", "address": "יוסף נבו 8, הרצליה", "notes": null, "status": "מרחב ציבורי" }, "geometry": { "type": "Point", "coordinates": [ 34.824499947425977, 32.167676805689467 ] } },
{ "type": "Feature", "properties": { "OBJECTID": 114, "מקלט": 224.0, "כתובת": "שבעת הכוכבים 122", "תיאור": "חט\"ב יד גיורא", "number_mik": 224.0, "open_1": null, "סוג": "מוסד חינוכי", "address": "שבעת הכוכבים 122, הרצליה", "notes": null, "status": "מוסד חינוכי" }, "geometry": { "type": "Point", "coordinates": [ 34.827057240005111, 32.164564304662626 ] } },
{ "type": "Feature", "properties": { "OBJECTID": 115, "מקלט": 225.0, "כתובת": "שבעת הכוכבים 122", "תיאור": "תיכון עירוני חדש", "number_mik": 225.0, "open_1": null, "סוג": "מוסד חינוכי", "address": "שבעת הכוכבים 122, הרצליה", "notes": null, "status": "מוסד חינוכי" }, "geometry": { "type": "Point", "coordinates": [ 34.826431123098132, 32.164715737793657 ] } }
]
}
