{
"type": "FeatureCollection",
"name": "raanana",
"crs": { "type": "name", "properties": { "name": "urn:ogc:def:crs:OGC:1.3:CRS84" } },
"features": [
{ "type": "Feature", "properties": { "OBJECTID_1": 25, "OBJECTID": 25, "adress": "דגניה 65", "M_Area": 25.0, "x": 188337.5256, "y": 677548.5468, "Agas": 12, "type": "תת קרקעי", "num": 25, "notes": "מול דגניה 70", "GlobalID": "aa9b53a8-aeca-4748-b649-0051f98a8a5d", "address": "דגניה 65, רעננה" }, "geometry": { "type": "Point", "coordinates": [ 34.874739799937601, 32.191216454424534 ] } },
{ "type": "Feature", "properties": { "OBJECTID_1": 11, "OBJECTID": 11, "adress": "פטריה 33", "M_Area": 30.0, "x": 186595.4504, "y": 678263.4541, "Agas": 26, "type": "תת קרקעי", "num": 11, "notes": "סמוך התחיה 67", "GlobalID": "639ad987-3008-448e-8087-04470a5a60f5", "address": "פטריה 33, רעננה" }, "geometry": { "type": "Point", "coordinates": [ 34.856202432933394, 32.197657527109264 ] } },
{ "type": "Feature", "properties": { "OBJECTID_1": 37, "OBJECTID": 37, "adress": "הרצל 1", "M_Area": 25.0, "x": 187834.7892, "y": 676490.2717, "Agas": 32, "type": "עילי", "num": 38, "notes": "סמוך למועצה הדתית,מונגש", "GlobalID": "9da1df0a-57bc-4440-89ea-06a5b969365d", "address": "הרצל 1, רעננה" }, "geometry": { "type": "Point", "coordinates": [ 34.86907169759187, 32.181132388472754 ] } },
{ "type": "Feature", "properties": { "OBJECTID_1": 36, "OBJECTID": 36, "adress": "מגדל 5", "M_Area": 30.0, "x": 187381.6093, "y": 676731.2344, "Agas": 24, "type": "תת קרקעי", "num": 36, "notes": " ", "GlobalID": "37ecb0eb-0fa6-4af8-8156-085a0975c54a", "address": "מגדל 5, רעננה" }, "geometry": { "type": "Point", "coordinates": [ 34.864300271430089, 32.183511752689419 ] } },
{ "type": "Feature", "properties": { "OBJECTID_1": 19, "OBJECTID": 19, "adress": "נג'ארה 2", "M_Area": 25.0, "x": 188302.1598, "y": 677958.5985, "Agas": 23, "type": "תת קרקעי", "num": 19, "notes": "סמול לבית הכנסת רסקו", "GlobalID": "291437c9-0b62-49cb-a1a1-0eec921f0400", "address": "נג'ארה 2, רעננה" }, "geometry": { "type": "Point", "coordinates": [ 34.874691355606892, 32.195028607409455 ] } },
{ "type": "Feature", "properties": { "OBJECTID_1": 24, "OBJECTID": 24, "adress": "אזולאי 3", "M_Area": 55.0, "x": 187717.2216, "y": 677525.426, "Agas": 23, "type": "תת קרקעי", "num": 24, "notes": " ", "GlobalID": "a2627d69-e7e7-4633-ab8b-1f794b2129b2", "address": "אזולאי 3, רעננה" }, "geometry": { "type": "Point", "coordinates": [ 34.867916035449412, 32.190721081949434 ] } },
{ "type": "Feature", "properties": { "OBJECTID_1": 20, "OBJECTID": 20, "adress": "האר\"י 1", "M_Area": 60.0, "x": 188333.8083, "y": 677872.0774, "Agas": 23, "type": "תת קרקעי", "num": 20, "notes": " ", "GlobalID": "4ef2bf07-61c4-4944-b051-1f83d874339b", "address": "האר\"י 1, רעננה" }, "geometry": { "type": "Point", "coordinates": [ 34.87461357939705, 32.194122198719803 ] } },
{ "type": "Feature", "properties": { "OBJECTID_1": 31, "OBJECTID": 31, "adress": "נחמיה 15", "M_Area": 25.0, "x": 187977.413, "y": 677131.6682, "Agas": 22, "type": "תת קרקעי", "num": 31, "notes": " ", "GlobalID": "7511d5fd-9214-4dfa-9551-1f90496bdc4b", "address": "נחמיה 15, רעננה" }, "geometry": { "type": "Point", "coordinates": [ 34.870883795391698, 32.187550572818132 ] } },
{ "type": "Feature", "properties": { "OBJECTID_1": 10, "OBJECTID": 10, "adress": "יציאת אירופה 35", "M_Area": 56.0, "x": 186720.685, "y": 678182.8585, "Agas": 26, "type": "תת קרקעי", "num": 10, "notes": " ", "GlobalID": "ce3976d4-1029-4da4-a897-261d8f54cbb8", "address": "יציאת אירופה 35, רעננה" }, "geometry": { "type": "Point", "coordinates": [ 34.85723100624903, 32.196968160756299 ] } },
{ "type": "Feature", "properties": { "OBJECTID_1": 17, "OBJECTID": 17, "adress": "דב הוז 22", "M_Area": 25.0, "x": 188248.2205, "y": 678036.5925, "Agas": 23, "type": "תת קרקעי", "num": 17, "notes": "במרכז רסקו", "GlobalID": "b6f65f7d-a766-4484-abad-3439f98912de", "address": "דב הוז 22, רעננה" }, "geometry": { "type": "Point", "coordinates": [ 34.873572108699548, 32.195586812396215 ] } },
{ "type": "Feature", "properties": { "OBJECTID_1": 8, "OBJECTID": 8, "adress": "המרגנית 3", "M_Area": 50.0, "x": 186877.7348, "y": 678270.4424000001, "Agas": 26, "type": "תת קרקעי", "num": 8, "notes": "מול המרגנית 4", "GlobalID": "4be672cf-8a2d-4566-b7e1-34dd2fd1f986", "address": "המרגנית 3, רעננה" }, "geometry": { "type": "Point", "coordinates": [ 34.859055847598235, 32.197366901479363 ] } },
{ "type": "Feature", "properties": { "OBJECTID_1": 7, "OBJECTID": 7, "adress": "מולדת 8", "M_Area": 64.0, "x": 186842.3094, "y": 678151.2139, "Agas": 26, "type": "תת קרקעי", "num": 7, "notes": "מול מולדת 4", "GlobalID": "b0c99a48-9f68-4910-bda2-3ac5e4c9a706", "address": "מולדת 8, רעננה" }, "geometry": { "type": "Point", "coordinates": [ 34.858235356487782, 32.19656219745049 ] } },
{ "type": "Feature", "properties": { "OBJECTID_1": 35, "OBJECTID": 35, "adress": "מגדל 21", "M_Area": 50.0, "x": 187436.1693, "y": 676946.9387000001, "Agas": 24, "type": "תת קרקעי", "num": 35, "notes": "סמוך לגן ציבורי מגדל", "GlobalID": "97e4b299-ceb4-4173-ae9f-3eefc7860b61", "address": "מגדל 21, רעננה" }, "geometry": { "type": "Point", "coordinates": [ 34.864923184177137, 32.185447022208486 ] } },
{ "type": "Feature", "properties": { "OBJECTID_1": 32, "OBJECTID": 32, "adress": "רמח\"ל  9", "M_Area": 25.0, "x": 188020.257, "y": 677023.2627, "Agas": 22, "type": "תת קרקעי", "num": 32, "notes": "בחצר ביה\"ס עצמאי", "GlobalID": "8a5c7120-4b4f-4a3b-a163-49928923e0d4", "address": "רמח\"ל  9, רעננה" }, "geometry": { "type": "Point", "coordinates": [ 34.870240557608078, 32.18654505204416 ] } },
{ "type": "Feature", "properties": { "OBJECTID_1": 41, "OBJECTID": 41, "adress": "בר אילן 27", "M_Area": 25.0, "x": 188282.3567, "y": 676715.1718, "Agas": 19, "type": "תת קרקעי", "num": 42, "notes": " ", "GlobalID": "e8f2034c-7ae0-40ce-a162-529641ee48cb", "address": "בר אילן 27, רעננה" }, "geometry": { "type": "Point", "coordinates": [ 34.87421416351976, 32.183467018794659 ] } },
{ "type": "Feature", "properties": { "OBJECTID_1": 18, "OBJECTID": 18, "adress": "דב הוז 39", "M_Area": 86.0, "x": 188393.6003, "y": 678223.5629, "Agas": 23, "type": "תת קרקעי", "num": 18, "notes": "בגן רסקו", "GlobalID": "6058e04e-af7c-4600-aa39-557cc6c4aee0", "address": "דב הוז 39, רעננה" }, "geometry": { "type": "Point", "coordinates": [ 34.874702159020011, 32.197479819565189 ] } },
{ "type": "Feature", "properties": { "OBJECTID_1": 4, "OBJECTID": 4, "adress": "הנורית 2", "M_Area": 25.0, "x": 186914.5549, "y": 678031.8121, "Agas": 26, "type": "תת קרקעי", "num": 4, "notes": " ", "GlobalID": "78bd3a70-17c5-4eaa-bb81-632a9a626de5", "address": "הנורית 2, רעננה" }, "geometry": { "type": "Point", "coordinates": [ 34.859405633761398, 32.195289909562739 ] } },
{ "type": "Feature", "properties": { "OBJECTID_1": 28, "OBJECTID": 28, "adress": "כנרת 3", "M_Area": 96.0, "x": 188752.529, "y": 677494.7597000001, "Agas": 12, "type": "תת קרקעי", "num": 28, "notes": " ", "GlobalID": "9fd73086-610a-47ca-bf5d-6731bfe51543", "address": "כנרת 3, רעננה" }, "geometry": { "type": "Point", "coordinates": [ 34.87893343741333, 32.190345255579984 ] } },
{ "type": "Feature", "properties": { "OBJECTID_1": 26, "OBJECTID": 26, "adress": "הפלמ\"ח 15", "M_Area": 25.0, "x": 188316.3988, "y": 677501.814, "Agas": 12, "type": "תת קרקעי", "num": 26, "notes": " ", "GlobalID": "ca8c37bd-26ba-441c-87ea-67d92d0284de", "address": "הפלמ\"ח 15, רעננה" }, "geometry": { "type": "Point", "coordinates": [ 34.876306320309887, 32.190695058971713 ] } },
{ "type": "Feature", "properties": { "OBJECTID_1": 34, "OBJECTID": 34, "adress": "מבצע קדש 9", "M_Area": 96.0, "x": 187577.7536, "y": 677167.9062, "Agas": 22, "type": "תת קרקעי", "num": 34, "notes": " ", "GlobalID": "62cf6bb7-fee0-4f11-a0b5-6b572cbd07b0", "address": "מבצע קדש 9, רעננה" }, "geometry": { "type": "Point", "coordinates": [ 34.866108120748265, 32.187821128356553 ] } },
{ "type": "Feature", "properties": { "OBJECTID_1": 9, "OBJECTID": 9, "adress": "פטריה 18", "M_Area": 32.0, "x": 186718.0743, "y": 678286.4716, "Agas": 26, "type": "תת קרקעי", "num": 9, "notes": " ", "GlobalID": "f8ec870d-a29e-4d4b-9b69-6cf388b5a5ce", "address": "פטריה 18, רעננה" }, "geometry": { "type": "Point", "coordinates": [ 34.857512874446826, 32.197693328547942 ] } },
{ "type": "Feature", "properties": { "OBJECTID_1": 46, "OBJECTID": 46, "adress": "אשר 39", "M_Area": 26.0, "x": 187131.2604, "y": 677257.7621000001, "Agas": 25, "type": "תת קרקעי", "num": 49, "notes": " ", "GlobalID": "0a78217e-3410-4f23-b0fa-6df562128743", "address": "אשר 39, רעננה" }, "geometry": { "type": "Point", "coordinates": [ 34.861671924726664, 32.188305608837602 ] } },
{ "type": "Feature", "properties": { "OBJECTID_1": 44, "OBJECTID": 44, "adress": "רבוצקי 58", "M_Area": 26.0, "x": 189421.5884, "y": 676633.3725000001, "Agas": 14, "type": "תת קרקעי", "num": 47, "notes": " ", "GlobalID": "625e21d7-6317-4dca-9dfd-761014e71bf5", "address": "רבוצקי 58, רעננה" }, "geometry": { "type": "Point", "coordinates": [ 34.886109750751338, 32.18296983811473 ] } },
{ "type": "Feature", "properties": { "OBJECTID_1": 16, "OBJECTID": 16, "adress": "ויצמן 94", "M_Area": 25.0, "x": 188247.8905, "y": 677729.3323, "Agas": 23, "type": "תת קרקעי", "num": 16, "notes": "פינת דב הוז", "GlobalID": "739b6a5f-1293-4aae-84cc-8e15ef520d7e", "address": "ויצמן 94, רעננה" }, "geometry": { "type": "Point", "coordinates": [ 34.873130921497996, 32.192633044637908 ] } },
{ "type": "Feature", "properties": { "OBJECTID_1": 15, "OBJECTID": 15, "adress": "פרץ 50", "M_Area": 50.0, "x": 186739.0015, "y": 677775.6368, "Agas": 26, "type": "תת קרקעי", "num": 15, "notes": " ", "GlobalID": "f6cd7ef3-a629-4205-b16d-9470a1daac4f", "address": "פרץ 50, רעננה" }, "geometry": { "type": "Point", "coordinates": [ 34.857731864122989, 32.193144604437435 ] } },
{ "type": "Feature", "properties": { "OBJECTID_1": 22, "OBJECTID": 22, "adress": "שמואל הנגיד 31", "M_Area": 55.0, "x": 188048.767, "y": 677579.3693, "Agas": 23, "type": "תת קרקעי", "num": 22, "notes": " ", "GlobalID": "b00b7325-22a0-4ac7-8e1d-a08e28edef6d", "address": "שמואל הנגיד 31, רעננה" }, "geometry": { "type": "Point", "coordinates": [ 34.871394756328769, 32.191224614422808 ] } },
{ "type": "Feature", "properties": { "OBJECTID_1": 1, "OBJECTID": 1, "adress": "אסירי ציון 13", "M_Area": 30.0, "x": 186800.8984, "y": 677848.3279, "Agas": 26, "type": "תת קרקעי", "num": 1, "notes": " ", "GlobalID": "c9a439dd-03ec-4705-9eb7-a2652e4a31c8", "address": "אסירי ציון 13, רעננה" }, "geometry": { "type": "Point", "coordinates": [ 34.858199769599523, 32.193871784357086 ] } },
{ "type": "Feature", "properties": { "OBJECTID_1": 5, "OBJECTID": 5, "adress": "מורשה 5", "M_Area": 40.0, "x": 186861.8862, "y": 678074.8184, "Agas": 26, "type": "תת קרקעי", "num": 5, "notes": " ", "GlobalID": "99c05293-76bd-4bd4-9936-a3a52ee11154", "address": "מורשה 5, רעננה" }, "geometry": { "type": "Point", "coordinates": [ 34.858382666063015, 32.195593096495379 ] } },
{ "type": "Feature", "properties": { "OBJECTID_1": 40, "OBJECTID": 40, "adress": "ברנדס 58", "M_Area": 26.0, "x": 188015.9787, "y": 675726.7027, "Agas": 33, "type": "תת קרקעי", "num": 41, "notes": "פינת פרדס משותף", "GlobalID": "3f176469-70f3-40bf-9574-a52387ab0809", "address": "ברנדס 58, רעננה" }, "geometry": { "type": "Point", "coordinates": [ 34.871107399418854, 32.174521289365259 ] } },
{ "type": "Feature", "properties": { "OBJECTID_1": 42, "OBJECTID": 42, "adress": "מכבי 63", "M_Area": 50.0, "x": 188909.9897, "y": 676888.8075, "Agas": 16, "type": "תת קרקעי", "num": 45, "notes": " ", "GlobalID": "f28a4dba-e3bc-47ea-a29b-aaec81b11ab2", "address": "מכבי 63, רעננה" }, "geometry": { "type": "Point", "coordinates": [ 34.880406268732791, 32.185753897944053 ] } },
{ "type": "Feature", "properties": { "OBJECTID_1": 30, "OBJECTID": 30, "adress": "בר אילן 67", "M_Area": 25.0, "x": 188414.7205, "y": 677097.8655, "Agas": 12, "type": "תת קרקעי", "num": 30, "notes": "סמוך לגן ילדים", "GlobalID": "b9004866-5495-498f-841a-aeb960fc0c31", "address": "בר אילן 67, רעננה" }, "geometry": { "type": "Point", "coordinates": [ 34.875413922257422, 32.187123883079231 ] } },
{ "type": "Feature", "properties": { "OBJECTID_1": 13, "OBJECTID": 13, "adress": "התחיה 39", "M_Area": 100.0, "x": 186458.4256, "y": 678125.8176, "Agas": 26, "type": "תת קרקעי", "num": 13, "notes": "סמוך גן הציבורי ליד בית התח", "GlobalID": "28571cdd-756f-4f0c-9316-c067fd878189", "address": "התחיה 39, רעננה" }, "geometry": { "type": "Point", "coordinates": [ 34.853975373473908, 32.196475098589467 ] } },
{ "type": "Feature", "properties": { "OBJECTID_1": 3, "OBJECTID": 3, "adress": "התקווה 3", "M_Area": 40.0, "x": 186857.7119, "y": 677958.9227, "Agas": 26, "type": "תת קרקעי", "num": 3, "notes": " ", "GlobalID": "f6328fa6-9f6c-4f2d-a6a3-c9ce04672db6", "address": "התקווה 3, רעננה" }, "geometry": { "type": "Point", "coordinates": [ 34.858714209575261, 32.194603283004263 ] } },
{ "type": "Feature", "properties": { "OBJECTID_1": 21, "OBJECTID": 21, "adress": "קרן היסוד 75", "M_Area": 25.0, "x": 188295.7001, "y": 677652.9399, "Agas": 23, "type": "תת קרקעי", "num": 21, "notes": "בחצר המועדון", "GlobalID": "9ff233b0-715e-47ae-8478-cbc404ff2c30", "address": "קרן היסוד 75, רעננה" }, "geometry": { "type": "Point", "coordinates": [ 34.874106226996979, 32.192091296164669 ] } },
{ "type": "Feature", "properties": { "OBJECTID_1": 27, "OBJECTID": 27, "adress": "בורוכוב 92", "M_Area": 25.0, "x": 188713.781, "y": 677537.8195, "Agas": 12, "type": "עילי", "num": 27, "notes": "מונגש", "GlobalID": "86716ff9-6c95-49a9-91cb-cc0a536f9876", "address": "בורוכוב 92, רעננה" }, "geometry": { "type": "Point", "coordinates": [ 34.878372045656441, 32.191654542359728 ] } },
{ "type": "Feature", "properties": { "OBJECTID_1": 47, "OBJECTID": 48, "adress": "אליעזר יפה 12", "M_Area": 67.0, "x": 188377.895, "y": 676470.2954, "Agas": 17, "type": "תת קרקעי", "num": 52, "notes": "פינת גולומב", "GlobalID": "cf67ce76-465c-4f7b-879b-cea83060b974", "address": "אליעזר יפה 12, רעננה" }, "geometry": { "type": "Point", "coordinates": [ 34.875908531001777, 32.182656589954441 ] } },
{ "type": "Feature", "properties": { "OBJECTID_1": 29, "OBJECTID": 29, "adress": "העבודה 13", "M_Area": 25.0, "x": 188868.2003, "y": 677341.821, "Agas": 12, "type": "עילי", "num": 29, "notes": "מונגש", "GlobalID": "18f1f9e3-ac73-4f3f-894c-dc70d69b17f8", "address": "העבודה 13, רעננה" }, "geometry": { "type": "Point", "coordinates": [ 34.880470209930841, 32.189290707818785 ] } },
{ "type": "Feature", "properties": { "OBJECTID_1": 12, "OBJECTID": 12, "adress": "יציאת אירופה 4", "M_Area": 35.0, "x": 186631.2517, "y": 678154.7783, "Agas": 26, "type": "תת קרקעי", "num": 12, "notes": " ", "GlobalID": "26360faf-96a6-44fd-9909-dffd03f8300f", "address": "יציאת אירופה 4, רעננה" }, "geometry": { "type": "Point", "coordinates": [ 34.8562148715326, 32.196389803045683 ] } },
{ "type": "Feature", "properties": { "OBJECTID_1": 33, "OBJECTID": 33, "adress": "דב גרונר 2", "M_Area": 25.0, "x": 187789.8775, "y": 676582.7622, "Agas": 22, "type": "תת קרקעי", "num": 33, "notes": "סמוך לגן ציבורי העלייה", "GlobalID": "5262867e-c6a6-4efd-809e-e3052e60174d", "address": "דב גרונר 2, רעננה" }, "geometry": { "type": "Point", "coordinates": [ 34.870153429264398, 32.187949840663308 ] } },
{ "type": "Feature", "properties": { "OBJECTID_1": 39, "OBJECTID": 39, "adress": "ברנדס 44", "M_Area": 50.0, "x": 188076.9941, "y": 675953.8589, "Agas": 33, "type": "תת קרקעי", "num": 40, "notes": "סמוך לחצר בית הכנסת", "GlobalID": "2c6546f9-3e58-4fc6-8de7-e32702dc165b", "address": "ברנדס 44, רעננה" }, "geometry": { "type": "Point", "coordinates": [ 34.871707974451645, 32.176613221531547 ] } },
{ "type": "Feature", "properties": { "OBJECTID_1": 6, "OBJECTID": 6, "adress": "הרותם 4", "M_Area": 35.0, "x": 186895.7766, "y": 678141.9629, "Agas": 26, "type": "תת קרקעי", "num": 6, "notes": "מול הרותם 5", "GlobalID": "13d28a62-c952-4bd3-923a-e731135074ee", "address": "הרותם 4, רעננה" }, "geometry": { "type": "Point", "coordinates": [ 34.859358692466024, 32.196520974956833 ] } },
{ "type": "Feature", "properties": { "OBJECTID_1": 23, "OBJECTID": 23, "adress": "אלקלעי 12", "M_Area": 30.0, "x": 187721.6161, "y": 677625.7656, "Agas": 23, "type": "תת קרקעי", "num": 23, "notes": " ", "GlobalID": "6a5fd4fe-da40-4dcf-b859-e8f541069427", "address": "אלקלעי 12, רעננה" }, "geometry": { "type": "Point", "coordinates": [ 34.867911718610635, 32.191519974014291 ] } },
{ "type": "Feature", "properties": { "OBJECTID_1": 2, "OBJECTID": 2, "adress": "הסיגלית 7", "M_Area": 25.0, "x": 186888.2594, "y": 677862.7313, "Agas": 26, "type": "תת קרקעי", "num": 2, "notes": " ", "GlobalID": "932e6815-9555-4a64-a525-ef2a12d2dae9", "address": "הסיגלית 7, רעננה" }, "geometry": { "type": "Point", "coordinates": [ 34.859433750955596, 32.193873338564892 ] } },
{ "type": "Feature", "properties": { "OBJECTID_1": 14, "OBJECTID": 14, "adress": "פרץ 12", "M_Area": 30.0, "x": 186323.5503, "y": 677862.0608, "Agas": 26, "type": "תת קרקעי", "num": 14, "notes": " ", "GlobalID": "1766e4dd-b6f9-4e2d-9eaf-fbc983744f15", "address": "פרץ 12, רעננה" }, "geometry": { "type": "Point", "coordinates": [ 34.853673137250603, 32.193803962072593 ] } },
{ "type": "Feature", "properties": { "OBJECTID_1": 43, "OBJECTID": 43, "adress": "ההסתדרות 57", "M_Area": 26.0, "x": 187970.8004, "y": 677189.6891, "Agas": 18, "type": "תת קרקעי", "num": 46, "notes": "פינת אליעזר יפה", "GlobalID": "e831aada-06fc-448f-9412-ff771c568bf1", "address": "ההסתדרות 57, רעננה" }, "geometry": { "type": "Point", "coordinates": [ 34.876419317513168, 32.186032291604256 ] } }
]
}
