{
"type": "FeatureCollection",
"name": "yavne",
"crs": { "type": "name", "properties": { "name": "urn:ogc:def:crs:OGC:1.3:CRS84" } },
"features": [
{ "type": "Feature", "properties": { "OBJECTID": 1, "comments": " ", "build_name": "כולל ישיבת \"אור מלול\" (דו תכליתי)", "miklat_num": "30", "address_old": "האלון24", "tik_num": "666300", "name": "כולל ישיבת \"אור מלול\" (דו תכליתי)", "address": "האלון24, יבנה" }, "geometry": { "type": "Point", "coordinates": [ 34.742953, 31.877201 ] } },
{ "type": "Feature", "properties": { "OBJECTID": 2, "comments": " ", "build_name": "כולל בינה לשבים (דו תכליתי)", "miklat_num": "11", "address_old": "בוכריס3", "tik_num": "665900", "name": "כולל בינה לשבים (דו תכליתי)", "address": "בוכריס3, יבנה" }, "geometry": { "type": "Point", "coordinates": [ 34.744049, 31.871068 ] } },
{ "type": "Feature", "properties": { "OBJECTID": 3, "comments": " ", "build_name": "עמותת \"ראש יוסף\" (דו תכליתי)", "miklat_num": "29", "address_old": "האלון19", "tik_num": "665300", "name": "עמותת \"ראש יוסף\" (דו תכליתי)", "address": "האלון19, יבנה" }, "geometry": { "type": "Point", "coordinates": [ 34.740648, 31.875488 ] } },
{ "type": "Feature", "properties": { "OBJECTID": 4, "comments": " ", "build_name": "בית חב\"ד (דו תכליתי)", "miklat_num": "28", "address_old": "האלון12", "tik_num": "223400", "name": "בית חב\"ד (דו תכליתי)", "address": "האלון12, יבנה" }, "geometry": { "type": "Point", "coordinates": [ 34.741459, 31.875093 ] } },
{ "type": "Feature", "properties": { "OBJECTID": 5, "comments": " ", "build_name": "מרכז קהילתי ציון (דו תכליתי)", "miklat_num": "6", "address_old": "התבור3", "tik_num": "24400", "name": "מרכז קהילתי ציון (דו תכליתי)", "address": "התבור3, יבנה" }, "geometry": { "type": "Point", "coordinates": [ 34.750125, 31.873439 ] } },
{ "type": "Feature", "properties": { "OBJECTID": 6, "comments": "מול בניין העירייה - מעבר לכביש", "build_name": "אגודת יד אליאסף (דו תכליתי)", "miklat_num": "17", "address_old": "שדרות דואני55", "tik_num": "666000", "name": "אגודת יד אליאסף (דו תכליתי)", "address": "שדרות דואני55, יבנה" }, "geometry": { "type": "Point", "coordinates": [ 34.745115, 31.869441 ] } },
{ "type": "Feature", "properties": { "OBJECTID": 7, "comments": " ", "build_name": "עיריית יבנה", "miklat_num": "32", "address_old": "משעול הגויאבה19", "tik_num": "233200", "name": "עיריית יבנה", "address": "משעול הגויאבה19, יבנה" }, "geometry": { "type": "Point", "coordinates": [ 34.737979, 31.876127 ] } },
{ "type": "Feature", "properties": { "OBJECTID": 8, "comments": " ", "build_name": "עמותת \"יבנה וחכמיה\" (דו תכליתי)", "miklat_num": "7", "address_old": "הנשיאים3", "tik_num": "665500", "name": "עמותת \"יבנה וחכמיה\" (דו תכליתי)", "address": "הנשיאים3, יבנה" }, "geometry": { "type": "Point", "coordinates": [ 34.749841, 31.872629 ] } },
{ "type": "Feature", "properties": { "OBJECTID": 9, "comments": " ", "build_name": " בית הכנסת \"מגן דוד\" (דו תכליתי)", "miklat_num": "2", "address_old": "הר סיני4", "tik_num": "665600", "name": " בית הכנסת \"מגן דוד\" (דו תכליתי)", "address": "הר סיני4, יבנה" }, "geometry": { "type": "Point", "coordinates": [ 34.751513, 31.873062 ] } },
{ "type": "Feature", "properties": { "OBJECTID": 10, "comments": " ", "build_name": "עירית יבנה - תרבות תורנית (דו תכליתי)", "miklat_num": "3", "address_old": "הר מירון11", "tik_num": "999999", "name": "עירית יבנה - תרבות תורנית (דו תכליתי)", "address": "הר מירון11, יבנה" }, "geometry": { "type": "Point", "coordinates": [ 34.751912, 31.873641 ] } },
{ "type": "Feature", "properties": { "OBJECTID": 11, "comments": " ", "build_name": "עירית יבנה - תרבות תורנית (דו תכליתי)", "miklat_num": "1", "address_old": "הגלבוע37", "tik_num": "233300", "name": "עירית יבנה - תרבות תורנית (דו תכליתי)", "address": "הגלבוע37, יבנה" }, "geometry": { "type": "Point", "coordinates": [ 34.750764, 31.876992 ] } },
{ "type": "Feature", "properties": { "OBJECTID": 12, "comments": " ", "build_name": "עירוני - רווחה", "miklat_num": "14", "address_old": "הלילך3", "tik_num": "666100", "name": "עירוני - רווחה", "address": "הלילך3, יבנה" }, "geometry": { "type": "Point", "coordinates": [ 34.747391, 31.870857 ] } },
{ "type": "Feature", "properties": { "OBJECTID": 13, "comments": " ", "build_name": "עירית יבנה - מרכז הפעלה עירוני", "miklat_num": "12", "address_old": "בוכריס9", "tik_num": "0", "name": "עירית יבנה - מרכז הפעלה עירוני", "address": "בוכריס9, יבנה" }, "geometry": { "type": "Point", "coordinates": [ 34.745468, 31.870075 ] } },
{ "type": "Feature", "properties": { "OBJECTID": 14, "comments": " ", "build_name": "עמותת קול יעקב וחסדי אברהם (דו תכליתי)", "miklat_num": "16", "address_old": "שדרות דואני33", "tik_num": "0", "name": "עמותת קול יעקב וחסדי אברהם (דו תכליתי)", "address": "שדרות דואני33, יבנה" }, "geometry": { "type": "Point", "coordinates": [ 34.743357, 31.870533 ] } },
{ "type": "Feature", "properties": { "OBJECTID": 15, "comments": " ", "build_name": "עירוני - תרבות תורנית", "miklat_num": "13", "address_old": "הלילך1", "tik_num": "0", "name": "עירוני - תרבות תורנית", "address": "הלילך1, יבנה" }, "geometry": { "type": "Point", "coordinates": [ 34.747624, 31.871334 ] } },
{ "type": "Feature", "properties": { "OBJECTID": 16, "comments": " ", "build_name": "עירוני", "miklat_num": "35", "address_old": "הגולן53", "tik_num": "1", "name": "עירוני", "address": "הגולן53, יבנה" }, "geometry": { "type": "Point", "coordinates": [ 34.727191, 31.873039 ] } },
{ "type": "Feature", "properties": { "OBJECTID": 17, "comments": " ", "build_name": "עירוני - משמר השכונה (משא\"ז)", "miklat_num": "34", "address_old": "הגולן37", "tik_num": "0", "name": "עירוני - משמר השכונה (משא\"ז)", "address": "הגולן37, יבנה" }, "geometry": { "type": "Point", "coordinates": [ 34.728096, 31.873673 ] } },
{ "type": "Feature", "properties": { "OBJECTID": 18, "comments": " ", "build_name": "עירוני", "miklat_num": "37", "address_old": "ניצנית54", "tik_num": "0", "name": "עירוני", "address": "ניצנית54, יבנה" }, "geometry": { "type": "Point", "coordinates": [ 34.727732, 31.871297 ] } },
{ "type": "Feature", "properties": { "OBJECTID": 19, "comments": " ", "build_name": "בית הכנסת אהבת ישראל (דו תכליתי)", "miklat_num": "39", "address_old": "יערה35", "tik_num": "0", "name": "בית הכנסת אהבת ישראל (דו תכליתי)", "address": "יערה35, יבנה" }, "geometry": { "type": "Point", "coordinates": [ 34.729969, 31.873312 ] } },
{ "type": "Feature", "properties": { "OBJECTID": 20, "comments": " ", "build_name": "עירוני - מועדון קשישים רווחה", "miklat_num": "42", "address_old": "צורית5", "tik_num": "0", "name": "עירוני - מועדון קשישים רווחה", "address": "צורית5, יבנה" }, "geometry": { "type": "Point", "coordinates": [ 34.730834, 31.874486 ] } },
{ "type": "Feature", "properties": { "OBJECTID": 21, "comments": " ", "build_name": "מועדון גמלאי משטרה(דו תכליתי)", "miklat_num": "41", "address_old": "יערה86", "tik_num": "0", "name": "מועדון גמלאי משטרה(דו תכליתי)", "address": "יערה86, יבנה" }, "geometry": { "type": "Point", "coordinates": [ 34.729804, 31.874594 ] } },
{ "type": "Feature", "properties": { "OBJECTID": 22, "comments": " ", "build_name": "עמותת אור עולם (דו תכליתי)", "miklat_num": "40", "address_old": "יערה50", "tik_num": "0", "name": "עמותת אור עולם (דו תכליתי)", "address": "יערה50, יבנה" }, "geometry": { "type": "Point", "coordinates": [ 34.730416, 31.87263 ] } },
{ "type": "Feature", "properties": { "OBJECTID": 23, "comments": " ", "build_name": "עירוני", "miklat_num": "36", "address_old": "ניצנית9", "tik_num": "0", "name": "עירוני", "address": "ניצנית9, יבנה" }, "geometry": { "type": "Point", "coordinates": [ 34.7279, 31.872451 ] } },
{ "type": "Feature", "properties": { "OBJECTID": 24, "comments": " ", "build_name": "עירוני", "miklat_num": "38", "address_old": "יערה32", "tik_num": "0", "name": "עירוני", "address": "יערה32, יבנה" }, "geometry": { "type": "Point", "coordinates": [ 34.729174, 31.872235 ] } },
{ "type": "Feature", "properties": { "OBJECTID": 25, "comments": " ", "build_name": "עירוני", "miklat_num": "43", "address_old": "דולב22", "tik_num": "0", "name": "עירוני", "address": "דולב22, יבנה" }, "geometry": { "type": "Point", "coordinates": [ 34.725556, 31.880101 ] } },
{ "type": "Feature", "properties": { "OBJECTID": 26, "comments": " ", "build_name": "עירוני", "miklat_num": "10", "address_old": "מבצע יונתן0", "tik_num": "0", "name": "עירוני", "address": "מבצע יונתן0, יבנה" }, "geometry": { "type": "Point", "coordinates": [ 34.749108, 31.86798 ] } },
{ "type": "Feature", "properties": { "OBJECTID": 27, "comments": " ", "build_name": "עמותת \"כולל אור ציון\" (דו תכליתי)", "miklat_num": "20", "address_old": "הסביון2", "tik_num": "645300", "name": "עמותת \"כולל אור ציון\" (דו תכליתי)", "address": "הסביון2, יבנה" }, "geometry": { "type": "Point", "coordinates": [ 34.747178, 31.873887 ] } },
{ "type": "Feature", "properties": { "OBJECTID": 28, "comments": " ", "build_name": "עירית יבנה", "miklat_num": "26", "address_old": "האורגים16", "tik_num": "0", "name": "עירית יבנה", "address": "האורגים16, יבנה" }, "geometry": { "type": "Point", "coordinates": [ 34.742105, 31.866898 ] } },
{ "type": "Feature", "properties": { "OBJECTID": 29, "comments": " ", "build_name": "עירית יבנה", "miklat_num": "27", "address_old": "האורגים7", "tik_num": "0", "name": "עירית יבנה", "address": "האורגים7, יבנה" }, "geometry": { "type": "Point", "coordinates": [ 34.741489, 31.866071 ] } },
{ "type": "Feature", "properties": { "OBJECTID": 30, "comments": " ", "build_name": "עמותת קול יעקב וחסדי אברהם", "miklat_num": "9", "address_old": "דוד אלעזר8", "tik_num": "644500", "name": "עמותת קול יעקב וחסדי אברהם", "address": "דוד אלעזר8, יבנה" }, "geometry": { "type": "Point", "coordinates": [ 34.749437, 31.869968 ] } },
{ "type": "Feature", "properties": { "OBJECTID": 31, "comments": " ", "build_name": "עמותת \"עת רחמים\" (דו תכליתי)", "miklat_num": "4", "address_old": "הר נבו18", "tik_num": "660600", "name": "עמותת \"עת רחמים\" (דו תכליתי)", "address": "הר נבו18, יבנה" }, "geometry": { "type": "Point", "coordinates": [ 34.751565, 31.875303 ] } },
{ "type": "Feature", "properties": { "OBJECTID": 32, "comments": " ", "build_name": "עירוני - תרבות תורנית", "miklat_num": "5", "address_old": "הגלבוע28", "tik_num": "0", "name": "עירוני - תרבות תורנית", "address": "הגלבוע28, יבנה" }, "geometry": { "type": "Point", "coordinates": [ 34.752112, 31.875887 ] } },
{ "type": "Feature", "properties": { "OBJECTID": 33, "comments": " ", "build_name": "עירית יבנה - מח' חרום", "miklat_num": "15", "address_old": "שבזי\\הלילך10", "tik_num": "657900", "name": "עירית יבנה - מח' חרום", "address": "שבזי\\הלילך10, יבנה" }, "geometry": { "type": "Point", "coordinates": [ 34.745528, 31.871052 ] } },
{ "type": "Feature", "properties": { "OBJECTID": 34, "comments": "מתנ\"ח - מקלט מחולק ל- 2", "build_name": "עירית יבנה - תאטרון הכרכרה (דו תכליתי)", "miklat_num": "45", "address_old": "שידלובסקי1", "tik_num": "610000", "name": "עירית יבנה - תאטרון הכרכרה (דו תכליתי)", "address": "שידלובסקי1, יבנה" }, "geometry": { "type": "Point", "coordinates": [ 34.731979, 31.89046 ] } },
{ "type": "Feature", "properties": { "OBJECTID": 35, "comments": " ", "build_name": "בן חמו אורי - ציוד", "miklat_num": "8", "address_old": "שדרות העצמאות13", "tik_num": "20400", "name": "בן חמו אורי - ציוד", "address": "שדרות העצמאות13, יבנה" }, "geometry": { "type": "Point", "coordinates": [ 34.749183, 31.87209 ] } },
{ "type": "Feature", "properties": { "OBJECTID": 36, "comments": " ", "build_name": "כולל משכנות תפארת משה (דו תכליתי)", "miklat_num": "18", "address_old": "החבצלת43", "tik_num": "0", "name": "כולל משכנות תפארת משה (דו תכליתי)", "address": "החבצלת43, יבנה" }, "geometry": { "type": "Point", "coordinates": [ 34.74616, 31.875794 ] } },
{ "type": "Feature", "properties": { "OBJECTID": 37, "comments": " ", "build_name": "עירוני", "miklat_num": "44", "address_old": "סיגל7", "tik_num": "0", "name": "עירוני", "address": "סיגל7, יבנה" }, "geometry": { "type": "Point", "coordinates": [ 34.732033, 31.879969 ] } },
{ "type": "Feature", "properties": { "OBJECTID": 38, "comments": "שכ' רובינשטיין", "build_name": "עירוני", "miklat_num": "33", "address_old": "משעול כליל החורש9999", "tik_num": "0", "name": "עירוני", "address": "משעול כליל החורש9999, יבנה" }, "geometry": { "type": "Point", "coordinates": [ 34.740653, 31.880097 ] } },
{ "type": "Feature", "properties": { "OBJECTID": 39, "comments": " ", "build_name": "בית הכנסת נצח זכריה (דו תכליתי)", "miklat_num": "19", "address_old": "אבו חצירא2", "tik_num": "641200", "name": "בית הכנסת נצח זכריה (דו תכליתי)", "address": "אבו חצירא2, יבנה" }, "geometry": { "type": "Point", "coordinates": [ 34.745445, 31.873979 ] } },
{ "type": "Feature", "properties": { "OBJECTID": 40, "comments": " ", "build_name": "עיריית יבנה - מרכז הספורט", "miklat_num": "31", "address_old": "האלון27", "tik_num": "663600", "name": "עיריית יבנה - מרכז הספורט", "address": "האלון27, יבנה" }, "geometry": { "type": "Point", "coordinates": [ 34.741962, 31.876494 ] } },
{ "type": "Feature", "properties": { "OBJECTID": 41, "comments": " ", "build_name": "עירוני", "miklat_num": "21", "address_old": "הצבעוני21", "tik_num": "595900", "name": "עירוני", "address": "הצבעוני21, יבנה" }, "geometry": { "type": "Point", "coordinates": [ 34.748289, 31.878023 ] } },
{ "type": "Feature", "properties": { "OBJECTID": 42, "comments": " ", "build_name": "עירוני", "miklat_num": "22", "address_old": "הצבעוני27", "tik_num": "595900", "name": "עירוני", "address": "הצבעוני27, יבנה" }, "geometry": { "type": "Point", "coordinates": [ 34.748511, 31.878297 ] } },
{ "type": "Feature", "properties": { "OBJECTID": 43, "comments": " ", "build_name": "עירוני", "miklat_num": "23", "address_old": "הצבעוני37", "tik_num": "596000", "name": "עירוני", "address": "הצבעוני37, יבנה" }, "geometry": { "type": "Point", "coordinates": [ 34.749022, 31.878165 ] } },
{ "type": "Feature", "properties": { "OBJECTID": 44, "comments": " ", "build_name": "עירוני", "miklat_num": "24", "address_old": "הצבעוני45", "tik_num": "596101", "name": "עירוני", "address": "הצבעוני45, יבנה" }, "geometry": { "type": "Point", "coordinates": [ 34.749675, 31.877818 ] } },
{ "type": "Feature", "properties": { "OBJECTID": 45, "comments": " ", "build_name": "עירוני", "miklat_num": "25", "address_old": "הצבעוני49", "tik_num": "596101", "name": "עירוני", "address": "הצבעוני49, יבנה" }, "geometry": { "type": "Point", "coordinates": [ 34.74956, 31.878172 ] } },
{ "type": "Feature", "properties": { "OBJECTID": 46, "comments": " ", "build_name": "עירוני", "miklat_num": "47", "address_old": "הגלבוע ליד בית 14 - 10420", "tik_num": "0", "name": "עירוני", "address": "הגלבוע ליד בית 14 - 10420, יבנה" }, "geometry": { "type": "Point", "coordinates": [ 34.751556, 31.873592 ] } },
{ "type": "Feature", "properties": { "OBJECTID": 47, "comments": "אין נתונים", "build_name": "כל בו בן חמו", "miklat_num": "46", "address_old": "נשיאים11", "tik_num": "615300", "name": "כל בו בן חמו", "address": "נשיאים11, יבנה" }, "geometry": { "type": "Point", "coordinates": [ 34.75034, 31.87233 ] } }
]
}
